{
    "type": "PlacesVisited",
    "locations": [
        {
            "text": "BBI",
            "size": 0.5,
            "country": "India",
            "city": "Bhubaneswar",
            "lat": "20.2961",
            "lng": "85.8245"
        },
        {
            "text": "KOL",
            "size": 0.4,
            "country": "India",
            "city": "Kolkata",
            "lat": "22.5726",
            "lng": "88.3639"
        },
        {
            "text": "JSR",
            "size": 0.4,
            "country": "India",
            "city": "Jamshedpur",
            "lat": "22.8000",
            "lng": "86.1833"
        },
        {
            "text": "HYD",
            "size": 0.4,
            "country": "India",
            "city": "Hyderabad",
            "lat": "17.3753",
            "lng": "78.4744"
        },
        {
            "text": "CHD",
            "size": 0.4,
            "country": "India",
            "city": "Chandigarh",
            "lat": "30.7333",
            "lng": "76.7794"
        },
        {
            "text": "BLR",
            "size": 0.4,
            "country": "India",
            "city": "Bangalore",
            "lat": "12.9716",
            "lng": "77.5946"
        },
        {
            "text": "SML",
            "size": 0.4,
            "country": "India",
            "city": "Shimla",
            "lat": "31.1048",
            "lng": "77.1734"
        },
        {
            "text": "DEL",
            "size": 0.4,
            "country": "India",
            "city": "New Delhi",
            "lat": "28.6139",
            "lng": "77.2090"
        },
        {
            "text": "GOA",
            "size": 0.4,
            "country": "India",
            "city": "Goa",
            "lat": "15.2993",
            "lng": "74.1240"
        },
        {
            "text": "GTG",
            "size": 0.4,
            "country": "India",
            "city": "Gangtok",
            "lat": "27.3333",
            "lng": "88.6167"
        },
        {
            "text": "JMU",
            "size": 0.4,
            "country": "India",
            "city": "Jammu",
            "lat": "32.7333",
            "lng": "74.8500"
        },
        {
            "text": "PUD",
            "size": 0.4,
            "country": "India",
            "city": "Pudducherry",
            "lat": "11.9333",
            "lng": "79.8333"
        },
        {
            "text": "OOTY",
            "size": 0.4,
            "country": "India",
            "city": "Ooty",
            "lat": "11.4067",
            "lng": "76.6936"
        },
        {
            "text": "AGR",
            "size": 0.4,
            "country": "India",
            "city": "Agra",
            "lat": "27.1767",
            "lng": "78.0081"
        },
        {
            "text": "KSH",
            "size": 0.4,
            "country": "India",
            "city": "Kashmir",
            "lat": "34.0837",
            "lng": "74.7973"
        },
        {
            "text": "DXB",
            "size": 0.4,
            "country": "United Arab Emirates",
            "city": "Dubai",
            "lat": "25.276987",
            "lng": "55.296249"
        },
        {
            "text": "HRD",
            "size": 0.4,
            "country": "India",
            "city": "Haridwar",
            "lat": "29.9457",
            "lng": "78.1642"
        },
        {
            "text": "KED",
            "size": 0.4,
            "country": "India",
            "city": "Kedarnath",
            "lat": "30.7342",
            "lng": "79.0661"
        },
        {
            "text": "MUM",
            "size": 0.4,
            "country": "India",
            "city": "Mumbai",
            "lat": "19.0760",
            "lng": "72.8777"
        }
    ]
}